{
  "status": 200,
  "response": {
    "areaName": "제주시",
    "reports": [
      {
        "latitude": "37.524603",
        "longitude": "127.121083",
        "petImageUrl": "https://encrypted-tbn0.gstatic.com/images?q=tbn:ANd9GcRI2by-CT5yeJknUPWvu3RHFHPrscEnq3o23bBqcxybp7KDC390FQ",
        "petOwnerName": "김재형",
        "petOwnerPhone": "010-2371-3321",
        "petOwnerEmail": "jacobchoi77@gmail.com",
        "petName": "삼손",
        "reportDate": "1509509142"
      },
      {
        "latitude": "37.523131",
        "longitude": "127.126565",
        "petImageUrl": "https://encrypted-tbn0.gstatic.com/images?q=tbn:ANd9GcQGALZnY7B_04g_-EB2BCJfY5Lg1c22YdP3uLojebP0hPPrEeswSQ",
        "petOwnerName": "오다애",
        "petOwnerPhone": "010-1131-1121",
        "petOwnerEmail": "jacobchoi77@gmail.com",
        "petName": "토리",
        "reportDate": "1512101142"
      },
      {
        "latitude": "37.520833",
        "longitude": "127.116866",
        "petImageUrl": "http://all-that-is-interesting.com/wordpress/wp-content/uploads/2014/11/pets-sugar-upclose.jpg",
        "petOwnerName": "이택우",
        "petOwnerPhone": "010-5371-3321",
        "petOwnerEmail": "jacobchoi77@gmail.com",
        "petName": "모리",
        "reportDate": "1512273942"
      },
      {
        "latitude": "37.523488",
        "longitude": "127.117982",
        "petImageUrl": "https://encrypted-tbn0.gstatic.com/images?q=tbn:ANd9GcTwKUImVS16TJraeJVPeQ8xHn1mNB-TOcusvpKxddeE2mq2Q4N_",
        "petOwnerName": "손상희",
        "petOwnerPhone": "010-5371-3321",
        "petOwnerEmail": "jacobchoi77@gmail.com",
        "petName": "상추",
        "reportDate": "1512360342"
      },
      {
        "latitude": "37.519718",
        "longitude": "127.122166",
        "petImageUrl": "https://img.webmd.com/dtmcms/live/webmd/consumer_assets/site_images/articles/health_tools/people_foods_cats_can_eat_slideshow/thinkstock_rf_photo_of_cat_with_fish_plate.jpg",
        "petOwnerName": "Jacob",
        "petOwnerPhone": "010-7371-3321",
        "petOwnerEmail": "jacobchoi77@gmail.com",
        "petName": "Ericson",
        "reportDate": "1507089942"
      },
      {
        "latitude": "37.511931",
        "longitude": "127.119012",
        "petImageUrl": "https://encrypted-tbn0.gstatic.com/images?q=tbn:ANd9GcSv4_vWFHNzHgkkZ3Ru0kCH7tbE2JT1QhLbhED0ayJrmNMebPnS",
        "petOwnerName": "김연아",
        "petOwnerPhone": "010-6371-3321",
        "petOwnerEmail": "jacobchoi77@gmail.com",
        "petName": "마오",
        "reportDate": "1508040342"
      },
      {
        "latitude": "37.508978",
        "longitude": "127.129172",
        "petImageUrl": "http://www.northwestpetscanning.com/uploads/3/9/7/7/39773972/5273570_orig.jpg",
        "petOwnerName": "집사",
        "petOwnerPhone": "010-5371-3321",
        "petOwnerEmail": "jacobchoi77@gmail.com",
        "petName": "백작",
        "reportDate": "1487131542"
      },
      {
        "latitude": "37.516484",
        "longitude": "127.137026",
        "petImageUrl": "https://d2g8igdw686xgo.cloudfront.net/17173994_1483484062.3271.jpg",
        "petOwnerName": "Higenberg",
        "petOwnerPhone": "010-2371-3321",
        "petOwnerEmail": "jacobchoi77@gmail.com",
        "petName": "Math",
        "reportDate": "1494821142"
      }
    ]
  }
}


